[
  {
    "id": "HSL:1020454",
    "type": "stop",
    "address": {
      "code": "0302",
      "name": "Rautatieasema",
      "desc": "Kaivokatu",
      "platformCode": "42",
      "nextDeparture": "Today at 14:49 9",
      "gtfsId": "HSL:1020454"
    }
  },
  {
    "id": "HSL:1293133",
    "isStation": false,
    "type": "stop",
    "address": {
      "code": "1658",
      "coordinates": [
        24.89482,
        60.22891
      ],
      "desc": "Pohjois-Haaga",
      "label": "Ida Aalbergin tie 1658, Pohjois-Haaga, Helsinki",
      "lat": 60.22891,
      "locality": "Helsinki",
      "lon": 24.89482,
      "name": "Ida Aalbergin tie",
      "neighbourhood": "Pohjois-Haaga",
      "postalcode": "00400",
      "region": "Uusimaa"
    }
  },
  {
    "id": "HSL:1000202",
    "type": "stop",
    "isStation": true,
    "address": {
      "code": null,
      "coordinates": [
        24.933114,
        60.199228
      ],
      "desc": "Keski-Pasila",
      "label": "Pasilan asema, Keski-Pasila, Helsinki",
      "lat": 60.199228,
      "locality": "Helsinki",
      "lon": 24.933114,
      "name": "Pasilan asema",
      "neighbourhood": "Keski-Pasila",
      "postalcode": "00520",
      "region": "Uusimaa"
    }
  },
  {
    "id": "HSL:9010216",
    "type": "stop",
    "isStation": false,
    "address": {
      "code": "Ke0116",
      "coordinates": [
        25.08438,
        60.40999
      ],
      "desc": "Kerava",
      "label": "Sepontie Ke0116, Kerava",
      "lat": 60.40999,
      "locality": "Kerava",
      "lon": 25.08438,
      "name": "Sepontie",
      "postalcode": "04200",
      "region": "Uusimaa"
    }
  },
  {
    "id": "HSL:1234567",
    "isStation": false,
    "type": "stop",
    "address": {
      "code": "1234",
      "coordinates": [],
      "label": "Stop without description 1234, Unknown",
      "lat": null,
      "locality": null,
      "lon": null,
      "name": "Stop without description",
      "neighbourhood": null,
      "postalcode": null,
      "region": null
    }
  },
  {
    "id": "HSL:0123456",
    "isStation": false,
    "type": "stop",
    "address": {
      "code": "0123",
      "coordinates": [],
      "desc": "Stop with same name and description",
      "label": "Stop with same name and description (0123), Unknown",
      "lat": null,
      "locality": null,
      "lon": null,
      "name": "Stop with same name and description",
      "neighbourhood": null,
      "postalcode": null,
      "region": null
    }
  },
  {
    "id": "node:472906011",
    "name": "Tafe's Home",
    "type": "place",
    "iconName": "home",
    "status": "favourite-place-status-home",
    "address": {
      "name": "Mäkelänkatu 34",
      "housenumber": "34",
      "street": "Mäkelänkatu",
      "postalcode": "00550",
      "region": "Uusimaa",
      "locality": "Helsinki",
      "neighbourhood": "Vallila",
      "label": "Mäkelänkatu 34, Helsinki",
      "lat": 60.194814,
      "lon": 24.95569
    }
  },
  {
    "id": "way:8042215",
    "name": "Kiasma",
    "type": "place",
    "iconName": "marker",
    "address": {
      "name": "Kiasma",
      "housenumber": "2",
      "street": "Mannerheiminaukio",
      "postalcode": "00100",
      "region": "Uusimaa",
      "locality": "Helsinki",
      "neighbourhood": "Kluuvi",
      "label": "Kiasma, Mannerheiminaukio 2, Helsinki",
      "lat": 60.171535,
      "lon": 24.936893
    }
  },
  {
    "id": "way:26390540",
    "name": "Arena Center Ruskeasuo",
    "type": "place",
    "iconName": "sport",
    "address": {
      "name": "Arena Center Ruskeasuo",
      "housenumber": "3",
      "street": "Nauvontie",
      "postalcode": "00280",
      "region": "Uusimaa",
      "locality": "Helsinki",
      "neighbourhood": "Vanha Ruskeasuo",
      "label": "Arena Center Ruskeasuo, Nauvontie 3, Helsinki",
      "lat": 60.20647,
      "lon": 24.901767
    }
  },
  {
    "id": "node:4412982883",
    "name": "Pasila",
    "type": "place",
    "iconName": "briefcase",
    "address": {
      "name": "Pasila",
      "postalcode": "00520",
      "region": "Uusimaa",
      "locality": "Helsinki",
      "neighbourhood": "Keski-Pasila",
      "label": "Pasila, Keski-Pasila, Helsinki",
      "lat": 60.197873,
      "lon": 24.932265
    }
  },
  {
    "id": "mml-10012245",
    "name": "Mika Häkkinen's neighbourhood",
    "type": "place",
    "iconName": "marker",
    "address": {
      "name": "Martinlaakso",
      "postalcode": "01720",
      "region": "Uusimaa",
      "locality": "Vantaa",
      "neighbourhood": "Varisto",
      "label": "Martinlaakso, Vantaa",
      "lat": 60.27848,
      "lon": 24.826433
    }
  }
]